{
    "TRACK_COORDINATES": {
        "Bahrain": {
            "lat": 26.0325,
            "lon": 50.5106
        },
        "Jeddah": {
            "lat": 21.6319,
            "lon": 39.1044
        },
        "Melbourne": {
            "lat": -37.8497,
            "lon": 144.968
        },
        "Suzuka": {
            "lat": 34.8431,
            "lon": 136.541
        },
        "Shanghai": {
            "lat": 31.3389,
            "lon": 121.22
        },
        "Miami": {
            "lat": 25.9581,
            "lon": -80.2389
        },
        "Imola": {
            "lat": 44.3439,
            "lon": 11.7167
        },
        "Monaco": {
            "lat": 43.7347,
            "lon": 7.4206
        },
        "Montreal": {
            "lat": 45.5017,
            "lon": -73.5228
        },
        "Barcelona": {
            "lat": 41.57,
            "lon": 2.2611
        },
        "Spielberg": {
            "lat": 47.2197,
            "lon": 14.7647
        },
        "Silverstone": {
            "lat": 52.0786,
            "lon": -1.0169
        },
        "Budapest": {
            "lat": 47.5789,
            "lon": 19.2486
        },
        "Spa": {
            "lat": 50.4372,
            "lon": 5.9714
        },
        "Zandvoort": {
            "lat": 52.3888,
            "lon": 4.5409
        },
        "Monza": {
            "lat": 45.6156,
            "lon": 9.2811
        },
        "Baku": {
            "lat": 40.3725,
            "lon": 49.8533
        },
        "Singapore": {
            "lat": 1.2914,
            "lon": 103.864
        },
        "Austin": {
            "lat": 30.1328,
            "lon": -97.6411
        },
        "Mexico City": {
            "lat": 19.4042,
            "lon": -99.0907
        },
        "Sao Paulo": {
            "lat": -23.7036,
            "lon": -46.6997
        },
        "Las Vegas": {
            "lat": 36.1147,
            "lon": -115.173
        },
        "Lusail": {
            "lat": 25.49,
            "lon": 51.4542
        },
        "Abu Dhabi": {
            "lat": 24.4672,
            "lon": 54.6031
        }
    },
    "TRACK_CHARACTERISTICS": {
        "Bahrain": {
            "circuit_name": "Bahrain International Circuit",
            "length_km": 5.412,
            "turns": 15,
            "downforce": "medium",
            "pit_loss_time": 21.5,
            "overtaking_difficulty": "low"
        },
        "Jeddah": {
            "circuit_name": "Jeddah Corniche Circuit",
            "length_km": 6.174,
            "turns": 27,
            "downforce": "low",
            "pit_loss_time": 22.0,
            "overtaking_difficulty": "high"
        },
        "Melbourne": {
            "circuit_name": "Albert Park Circuit",
            "length_km": 5.278,
            "turns": 14,
            "downforce": "medium",
            "pit_loss_time": 20.0,
            "overtaking_difficulty": "medium"
        },
        "Suzuka": {
            "circuit_name": "Suzuka International Racing Course",
            "length_km": 5.807,
            "turns": 18,
            "downforce": "high",
            "pit_loss_time": 21.0,
            "overtaking_difficulty": "high"
        },
        "Shanghai": {
            "circuit_name": "Shanghai International Circuit",
            "length_km": 5.451,
            "turns": 16,
            "downforce": "medium",
            "pit_loss_time": 21.5,
            "overtaking_difficulty": "low"
        },
        "Miami": {
            "circuit_name": "Miami International Autodrome",
            "length_km": 5.412,
            "turns": 19,
            "downforce": "medium",
            "pit_loss_time": 20.5,
            "overtaking_difficulty": "medium"
        },
        "Imola": {
            "circuit_name": "Autodromo Enzo e Dino Ferrari",
            "length_km": 4.909,
            "turns": 19,
            "downforce": "high",
            "pit_loss_time": 24.0,
            "overtaking_difficulty": "high"
        },
        "Monaco": {
            "circuit_name": "Circuit de Monaco",
            "length_km": 3.337,
            "turns": 19,
            "downforce": "high",
            "pit_loss_time": 23.0,
            "overtaking_difficulty": "very_high"
        },
        "Montreal": {
            "circuit_name": "Circuit Gilles Villeneuve",
            "length_km": 4.361,
            "turns": 14,
            "downforce": "low",
            "pit_loss_time": 20.5,
            "overtaking_difficulty": "medium"
        },
        "Barcelona": {
            "circuit_name": "Circuit de Barcelona-Catalunya",
            "length_km": 4.657,
            "turns": 16,
            "downforce": "high",
            "pit_loss_time": 21.0,
            "overtaking_difficulty": "high"
        },
        "Spielberg": {
            "circuit_name": "Red Bull Ring",
            "length_km": 4.318,
            "turns": 10,
            "downforce": "low",
            "pit_loss_time": 18.5,
            "overtaking_difficulty": "low"
        },
        "Silverstone": {
            "circuit_name": "Silverstone Circuit",
            "length_km": 5.891,
            "turns": 18,
            "downforce": "high",
            "pit_loss_time": 19.0,
            "overtaking_difficulty": "medium"
        },
        "Budapest": {
            "circuit_name": "Hungaroring",
            "length_km": 4.381,
            "turns": 14,
            "downforce": "high",
            "pit_loss_time": 21.5,
            "overtaking_difficulty": "very_high"
        },
        "Spa": {
            "circuit_name": "Circuit de Spa-Francorchamps",
            "length_km": 7.004,
            "turns": 19,
            "downforce": "medium",
            "pit_loss_time": 22.0,
            "overtaking_difficulty": "low"
        },
        "Zandvoort": {
            "circuit_name": "Circuit Zandvoort",
            "length_km": 4.259,
            "turns": 14,
            "downforce": "high",
            "pit_loss_time": 19.0,
            "overtaking_difficulty": "very_high"
        },
        "Monza": {
            "circuit_name": "Autodromo Nazionale Monza",
            "length_km": 5.793,
            "turns": 11,
            "downforce": "low",
            "pit_loss_time": 24.0,
            "overtaking_difficulty": "low"
        },
        "Baku": {
            "circuit_name": "Baku City Circuit",
            "length_km": 6.003,
            "turns": 20,
            "downforce": "low",
            "pit_loss_time": 22.0,
            "overtaking_difficulty": "medium"
        },
        "Singapore": {
            "circuit_name": "Marina Bay Street Circuit",
            "length_km": 4.94,
            "turns": 19,
            "downforce": "high",
            "pit_loss_time": 29.0,
            "overtaking_difficulty": "very_high"
        },
        "Austin": {
            "circuit_name": "Circuit of The Americas",
            "length_km": 5.513,
            "turns": 20,
            "downforce": "medium",
            "pit_loss_time": 22.0,
            "overtaking_difficulty": "medium"
        },
        "Mexico City": {
            "circuit_name": "Autódromo Hermanos Rodríguez",
            "length_km": 4.304,
            "turns": 17,
            "downforce": "high",
            "pit_loss_time": 20.0,
            "overtaking_difficulty": "medium"
        },
        "Sao Paulo": {
            "circuit_name": "Autódromo José Carlos Pace",
            "length_km": 4.309,
            "turns": 15,
            "downforce": "high",
            "pit_loss_time": 21.0,
            "overtaking_difficulty": "low"
        },
        "Las Vegas": {
            "circuit_name": "Las Vegas Street Circuit",
            "length_km": 6.201,
            "turns": 17,
            "downforce": "low",
            "pit_loss_time": 21.5,
            "overtaking_difficulty": "medium"
        },
        "Lusail": {
            "circuit_name": "Lusail International Circuit",
            "length_km": 5.419,
            "turns": 16,
            "downforce": "medium",
            "pit_loss_time": 20.0,
            "overtaking_difficulty": "medium"
        },
        "Abu Dhabi": {
            "circuit_name": "Yas Marina Circuit",
            "length_km": 5.281,
            "turns": 16,
            "downforce": "high",
            "pit_loss_time": 22.5,
            "overtaking_difficulty": "medium"
        }
    }
}